[
  {"id": 1, "brandId": "MCD", "name": "McDonald's", "address": "Times Square, New York, NY", "lat": 40.7580, "lng": -73.9855},
  {"id": 2, "brandId": "MCD", "name": "McDonald's", "address": "Herald Square, New York, NY", "lat": 40.7484, "lng": -73.9857},
  {"id": 3, "brandId": "MCD", "name": "McDonald's", "address": "Midtown East, New York, NY", "lat": 40.7614, "lng": -73.9776},
  {"id": 4, "brandId": "MCD", "name": "McDonald's", "address": "Chicago Loop, IL", "lat": 41.8781, "lng": -87.6298},
  {"id": 5, "brandId": "MCD", "name": "McDonald's", "address": "Magnificent Mile, Chicago, IL", "lat": 41.8827, "lng": -87.6233},
  {"id": 6, "brandId": "MCD", "name": "McDonald's", "address": "Downtown LA, CA", "lat": 34.0522, "lng": -118.2437},
  {"id": 7, "brandId": "MCD", "name": "McDonald's", "address": "Santa Monica, CA", "lat": 34.0195, "lng": -118.4912},
  {"id": 8, "brandId": "MCD", "name": "McDonald's", "address": "San Francisco, CA", "lat": 37.7749, "lng": -122.4194},
  {"id": 9, "brandId": "MCD", "name": "McDonald's", "address": "Boston Common, MA", "lat": 42.3601, "lng": -71.0589},
  {"id": 10, "brandId": "MCD", "name": "McDonald's", "address": "Fenway, Boston, MA", "lat": 42.3467, "lng": -71.0972},
  {"id": 11, "brandId": "MCD", "name": "McDonald's", "address": "Downtown Seattle, WA", "lat": 47.6062, "lng": -122.3321},
  {"id": 12, "brandId": "MCD", "name": "McDonald's", "address": "Phoenix, AZ", "lat": 33.4484, "lng": -112.0740},
  {"id": 13, "brandId": "MCD", "name": "McDonald's", "address": "Houston, TX", "lat": 29.7604, "lng": -95.3698},
  {"id": 14, "brandId": "MCD", "name": "McDonald's", "address": "Dallas, TX", "lat": 32.7767, "lng": -96.7970},
  {"id": 15, "brandId": "MCD", "name": "McDonald's", "address": "Miami, FL", "lat": 25.7617, "lng": -80.1918},
  {"id": 16, "brandId": "MCD", "name": "McDonald's", "address": "Denver, CO", "lat": 39.7392, "lng": -104.9903},
  {"id": 17, "brandId": "MCD", "name": "McDonald's", "address": "Las Vegas Strip, NV", "lat": 36.1699, "lng": -115.1398},
  {"id": 18, "brandId": "MCD", "name": "McDonald's", "address": "Nashville, TN", "lat": 36.1627, "lng": -86.7816},
  {"id": 19, "brandId": "MCD", "name": "McDonald's", "address": "Charlotte, NC", "lat": 35.2271, "lng": -80.8431},
  {"id": 20, "brandId": "MCD", "name": "McDonald's", "address": "Austin, TX", "lat": 30.2672, "lng": -97.7431},
  {"id": 21, "brandId": "MCD", "name": "McDonald's", "address": "Kansas City, MO", "lat": 39.0997, "lng": -94.5786},
  {"id": 22, "brandId": "MCD", "name": "McDonald's", "address": "Minneapolis, MN", "lat": 44.9778, "lng": -93.2650},
  {"id": 23, "brandId": "MCD", "name": "McDonald's", "address": "Washington DC", "lat": 38.9072, "lng": -77.0369},
  {"id": 24, "brandId": "MCD", "name": "McDonald's", "address": "Portland, OR", "lat": 45.5051, "lng": -122.6750},
  {"id": 25, "brandId": "MCD", "name": "McDonald's", "address": "San Diego, CA", "lat": 32.7157, "lng": -117.1611},

  {"id": 26, "brandId": "SBUX", "name": "Starbucks", "address": "Times Square, New York, NY", "lat": 40.7580, "lng": -73.9690},
  {"id": 27, "brandId": "SBUX", "name": "Starbucks", "address": "Grand Central, New York, NY", "lat": 40.7527, "lng": -73.9772},
  {"id": 28, "brandId": "SBUX", "name": "Starbucks", "address": "Wall Street, New York, NY", "lat": 40.7061, "lng": -74.0089},
  {"id": 29, "brandId": "SBUX", "name": "Starbucks", "address": "Pike Place (Original), Seattle, WA", "lat": 47.6097, "lng": -122.3331},
  {"id": 30, "brandId": "SBUX", "name": "Starbucks", "address": "Downtown Seattle, WA", "lat": 47.6062, "lng": -122.3321},
  {"id": 31, "brandId": "SBUX", "name": "Starbucks", "address": "Chicago Loop, IL", "lat": 41.8781, "lng": -87.6298},
  {"id": 32, "brandId": "SBUX", "name": "Starbucks", "address": "Downtown LA, CA", "lat": 34.0522, "lng": -118.2437},
  {"id": 33, "brandId": "SBUX", "name": "Starbucks", "address": "San Francisco, CA", "lat": 37.7749, "lng": -122.4194},
  {"id": 34, "brandId": "SBUX", "name": "Starbucks", "address": "Boston, MA", "lat": 42.3601, "lng": -71.0589},
  {"id": 35, "brandId": "SBUX", "name": "Starbucks", "address": "Phoenix, AZ", "lat": 33.4484, "lng": -112.0740},
  {"id": 36, "brandId": "SBUX", "name": "Starbucks", "address": "Denver, CO", "lat": 39.7392, "lng": -104.9903},
  {"id": 37, "brandId": "SBUX", "name": "Starbucks", "address": "Las Vegas, NV", "lat": 36.1699, "lng": -115.1398},
  {"id": 38, "brandId": "SBUX", "name": "Starbucks", "address": "Georgetown, Washington DC", "lat": 38.9072, "lng": -77.0369},
  {"id": 39, "brandId": "SBUX", "name": "Starbucks", "address": "Portland, OR", "lat": 45.5051, "lng": -122.6750},
  {"id": 40, "brandId": "SBUX", "name": "Starbucks", "address": "San Diego, CA", "lat": 32.7157, "lng": -117.1611},
  {"id": 41, "brandId": "SBUX", "name": "Starbucks", "address": "Nashville, TN", "lat": 36.1627, "lng": -86.7816},
  {"id": 42, "brandId": "SBUX", "name": "Starbucks", "address": "Columbus, OH", "lat": 39.9612, "lng": -82.9988},
  {"id": 43, "brandId": "SBUX", "name": "Starbucks", "address": "Scottsdale, AZ", "lat": 33.4484, "lng": -112.0773},

  {"id": 44, "brandId": "CMG", "name": "Chipotle", "address": "Times Square, New York, NY", "lat": 40.7580, "lng": -73.9855},
  {"id": 45, "brandId": "CMG", "name": "Chipotle", "address": "Midtown, New York, NY", "lat": 40.7484, "lng": -73.9857},
  {"id": 46, "brandId": "CMG", "name": "Chipotle", "address": "Chicago Loop, IL", "lat": 41.8781, "lng": -87.6298},
  {"id": 47, "brandId": "CMG", "name": "Chipotle", "address": "Downtown LA, CA", "lat": 34.0522, "lng": -118.2437},
  {"id": 48, "brandId": "CMG", "name": "Chipotle", "address": "San Francisco, CA", "lat": 37.7749, "lng": -122.4194},
  {"id": 49, "brandId": "CMG", "name": "Chipotle", "address": "Boston, MA", "lat": 42.3601, "lng": -71.0589},
  {"id": 50, "brandId": "CMG", "name": "Chipotle", "address": "Denver, CO", "lat": 39.7392, "lng": -104.9903},
  {"id": 51, "brandId": "CMG", "name": "Chipotle", "address": "Phoenix, AZ", "lat": 33.4484, "lng": -112.0740},
  {"id": 52, "brandId": "CMG", "name": "Chipotle", "address": "Washington DC", "lat": 38.9072, "lng": -77.0369},
  {"id": 53, "brandId": "CMG", "name": "Chipotle", "address": "Austin, TX", "lat": 30.2672, "lng": -97.7431},
  {"id": 54, "brandId": "CMG", "name": "Chipotle", "address": "Charlotte, NC", "lat": 35.2271, "lng": -80.8431},
  {"id": 55, "brandId": "CMG", "name": "Chipotle", "address": "Nashville, TN", "lat": 36.1627, "lng": -86.7816},
  {"id": 56, "brandId": "CMG", "name": "Chipotle", "address": "Portland, OR", "lat": 45.5051, "lng": -122.6750},
  {"id": 57, "brandId": "CMG", "name": "Chipotle", "address": "Minneapolis, MN", "lat": 44.9778, "lng": -93.2650},

  {"id": 58, "brandId": "DPZ", "name": "Domino's Pizza", "address": "Boston Common, MA", "lat": 42.3551, "lng": -71.0656},
  {"id": 59, "brandId": "DPZ", "name": "Domino's Pizza", "address": "Back Bay, Boston, MA", "lat": 42.3467, "lng": -71.0824},
  {"id": 60, "brandId": "DPZ", "name": "Domino's Pizza", "address": "Downtown Boston, MA", "lat": 42.3601, "lng": -71.0589},
  {"id": 61, "brandId": "DPZ", "name": "Domino's Pizza", "address": "Times Square, NY", "lat": 40.7580, "lng": -73.9855},
  {"id": 62, "brandId": "DPZ", "name": "Domino's Pizza", "address": "Chicago, IL", "lat": 41.8781, "lng": -87.6298},
  {"id": 63, "brandId": "DPZ", "name": "Domino's Pizza", "address": "LA, CA", "lat": 34.0522, "lng": -118.2437},
  {"id": 64, "brandId": "DPZ", "name": "Domino's Pizza", "address": "Seattle, WA", "lat": 47.6062, "lng": -122.3321},
  {"id": 65, "brandId": "DPZ", "name": "Domino's Pizza", "address": "Phoenix, AZ", "lat": 33.4484, "lng": -112.0740},
  {"id": 66, "brandId": "DPZ", "name": "Domino's Pizza", "address": "Washington DC", "lat": 38.9072, "lng": -77.0369},
  {"id": 67, "brandId": "DPZ", "name": "Domino's Pizza", "address": "Denver, CO", "lat": 39.7392, "lng": -104.9903},
  {"id": 68, "brandId": "DPZ", "name": "Domino's Pizza", "address": "Nashville, TN", "lat": 36.1627, "lng": -86.7816},
  {"id": 69, "brandId": "DPZ", "name": "Domino's Pizza", "address": "Austin, TX", "lat": 30.2672, "lng": -97.7431},
  {"id": 70, "brandId": "DPZ", "name": "Domino's Pizza", "address": "Atlanta, GA", "lat": 33.7490, "lng": -84.3880},
  {"id": 71, "brandId": "DPZ", "name": "Domino's Pizza", "address": "Miami, FL", "lat": 25.7617, "lng": -80.1918},
  {"id": 72, "brandId": "DPZ", "name": "Domino's Pizza", "address": "Philadelphia, PA", "lat": 39.9526, "lng": -75.1652},

  {"id": 73, "brandId": "WEN", "name": "Wendy's", "address": "Columbus HQ, OH", "lat": 40.0150, "lng": -83.0308},
  {"id": 74, "brandId": "WEN", "name": "Wendy's", "address": "Times Square, New York, NY", "lat": 40.7580, "lng": -73.9855},
  {"id": 75, "brandId": "WEN", "name": "Wendy's", "address": "Chicago, IL", "lat": 41.8781, "lng": -87.6298},
  {"id": 76, "brandId": "WEN", "name": "Wendy's", "address": "Houston, TX", "lat": 29.7604, "lng": -95.3698},
  {"id": 77, "brandId": "WEN", "name": "Wendy's", "address": "Phoenix, AZ", "lat": 33.4484, "lng": -112.0740},
  {"id": 78, "brandId": "WEN", "name": "Wendy's", "address": "Boston, MA", "lat": 42.3601, "lng": -71.0589},
  {"id": 79, "brandId": "WEN", "name": "Wendy's", "address": "LA, CA", "lat": 34.0522, "lng": -118.2437},
  {"id": 80, "brandId": "WEN", "name": "Wendy's", "address": "Dallas, TX", "lat": 32.7767, "lng": -96.7970},
  {"id": 81, "brandId": "WEN", "name": "Wendy's", "address": "Denver, CO", "lat": 39.7392, "lng": -104.9903},
  {"id": 82, "brandId": "WEN", "name": "Wendy's", "address": "Washington DC", "lat": 38.9072, "lng": -77.0369},
  {"id": 83, "brandId": "WEN", "name": "Wendy's", "address": "Nashville, TN", "lat": 36.1627, "lng": -86.7816},
  {"id": 84, "brandId": "WEN", "name": "Wendy's", "address": "Charlotte, NC", "lat": 35.2271, "lng": -80.8431},
  {"id": 85, "brandId": "WEN", "name": "Wendy's", "address": "Minneapolis, MN", "lat": 44.9778, "lng": -93.2650},
  {"id": 86, "brandId": "WEN", "name": "Wendy's", "address": "Philadelphia, PA", "lat": 39.9526, "lng": -75.1652},

  {"id": 87, "brandId": "SHAK", "name": "Shake Shack", "address": "Madison Square Park (Original), NY", "lat": 40.7410, "lng": -73.9887},
  {"id": 88, "brandId": "SHAK", "name": "Shake Shack", "address": "Times Square, NY", "lat": 40.7580, "lng": -73.9855},
  {"id": 89, "brandId": "SHAK", "name": "Shake Shack", "address": "Financial District, NY", "lat": 40.7061, "lng": -74.0089},
  {"id": 90, "brandId": "SHAK", "name": "Shake Shack", "address": "Chicago, IL", "lat": 41.8827, "lng": -87.6233},
  {"id": 91, "brandId": "SHAK", "name": "Shake Shack", "address": "Santa Monica, CA", "lat": 34.0195, "lng": -118.4912},
  {"id": 92, "brandId": "SHAK", "name": "Shake Shack", "address": "Boston, MA", "lat": 42.3601, "lng": -71.0589},
  {"id": 93, "brandId": "SHAK", "name": "Shake Shack", "address": "Washington DC", "lat": 38.9072, "lng": -77.0369},
  {"id": 94, "brandId": "SHAK", "name": "Shake Shack", "address": "Atlanta, GA", "lat": 33.7490, "lng": -84.3880},
  {"id": 95, "brandId": "SHAK", "name": "Shake Shack", "address": "Philadelphia, PA", "lat": 39.9526, "lng": -75.1652},
  {"id": 96, "brandId": "SHAK", "name": "Shake Shack", "address": "Las Vegas, NV", "lat": 36.1699, "lng": -115.1398},
  {"id": 97, "brandId": "SHAK", "name": "Shake Shack", "address": "Denver, CO", "lat": 39.7392, "lng": -104.9903},

  {"id": 98, "brandId": "WING", "name": "Wingstop", "address": "Dallas HQ, TX", "lat": 32.7767, "lng": -96.7970},
  {"id": 99, "brandId": "WING", "name": "Wingstop", "address": "New York, NY", "lat": 40.7580, "lng": -73.9855},
  {"id": 100, "brandId": "WING", "name": "Wingstop", "address": "LA, CA", "lat": 34.0522, "lng": -118.2437},
  {"id": 101, "brandId": "WING", "name": "Wingstop", "address": "Atlanta, GA", "lat": 33.7490, "lng": -84.3880},
  {"id": 102, "brandId": "WING", "name": "Wingstop", "address": "Houston, TX", "lat": 29.7604, "lng": -95.3698},
  {"id": 103, "brandId": "WING", "name": "Wingstop", "address": "Washington DC", "lat": 38.9072, "lng": -77.0369},
  {"id": 104, "brandId": "WING", "name": "Wingstop", "address": "Denver, CO", "lat": 39.7392, "lng": -104.9903},
  {"id": 105, "brandId": "WING", "name": "Wingstop", "address": "Nashville, TN", "lat": 36.1627, "lng": -86.7816},
  {"id": 106, "brandId": "WING", "name": "Wingstop", "address": "Charlotte, NC", "lat": 35.2271, "lng": -80.8431},
  {"id": 107, "brandId": "WING", "name": "Wingstop", "address": "Philadelphia, PA", "lat": 39.9526, "lng": -75.1652},

  {"id": 108, "brandId": "PLNT", "name": "Planet Fitness", "address": "NJ HQ", "lat": 40.6892, "lng": -74.0445},
  {"id": 109, "brandId": "PLNT", "name": "Planet Fitness", "address": "Times Square, NY", "lat": 40.7580, "lng": -73.9855},
  {"id": 110, "brandId": "PLNT", "name": "Planet Fitness", "address": "Chicago, IL", "lat": 41.8781, "lng": -87.6298},
  {"id": 111, "brandId": "PLNT", "name": "Planet Fitness", "address": "LA, CA", "lat": 34.0522, "lng": -118.2437},
  {"id": 112, "brandId": "PLNT", "name": "Planet Fitness", "address": "Atlanta, GA", "lat": 33.7490, "lng": -84.3880},
  {"id": 113, "brandId": "PLNT", "name": "Planet Fitness", "address": "Philadelphia, PA", "lat": 39.9526, "lng": -75.1652},
  {"id": 114, "brandId": "PLNT", "name": "Planet Fitness", "address": "Boston, MA", "lat": 42.3601, "lng": -71.0589},
  {"id": 115, "brandId": "PLNT", "name": "Planet Fitness", "address": "Washington DC", "lat": 38.9072, "lng": -77.0369},
  {"id": 116, "brandId": "PLNT", "name": "Planet Fitness", "address": "Denver, CO", "lat": 39.7392, "lng": -104.9903},
  {"id": 117, "brandId": "PLNT", "name": "Planet Fitness", "address": "Nashville, TN", "lat": 36.1627, "lng": -86.7816},
  {"id": 118, "brandId": "PLNT", "name": "Planet Fitness", "address": "Charlotte, NC", "lat": 35.2271, "lng": -80.8431},
  {"id": 119, "brandId": "PLNT", "name": "Planet Fitness", "address": "Dallas, TX", "lat": 32.7767, "lng": -96.7970},
  {"id": 120, "brandId": "PLNT", "name": "Planet Fitness", "address": "Houston, TX", "lat": 29.7604, "lng": -95.3698}
]
